{"type":"FeatureCollection","features":[{"type":"Feature","geometry":{"type":"Point","coordinates":[-84.39016900000001,33.754289,0]},"properties":{"name":"Georgia State University-Andrew Young School of Policy Studies"}},{"type":"Feature","geometry":{"type":"Point","coordinates":[-84.38715860000002,33.7532169,0]},"properties":{"name":"Langdale Hall"}},{"type":"Feature","geometry":{"type":"Point","coordinates":[-84.38755809999998,33.7525817,0]},"properties":{"name":"Classroom South"}},{"type":"Feature","geometry":{"type":"Point","coordinates":[-84.38912640000001,33.7563531,0]},"properties":{"name":"Helen M. Aderhold Learning Center"}},{"type":"Feature","geometry":{"type":"Point","coordinates":[-84.38976000000002,33.75663,0]},"properties":{"name":"School of Music"}},{"type":"Feature","geometry":{"type":"Point","coordinates":[-84.38952599999999,33.756715,0]},"properties":{"name":"Rialto Center for the Arts"}},{"type":"Feature","geometry":{"type":"Point","coordinates":[-84.389925,33.755144,0]},"properties":{"name":"J. Mack Robinson College of Business"}},{"type":"Feature","geometry":{"type":"Point","coordinates":[-84.38590720000002,33.7534327,0]},"properties":{"name":"Sparks Hall"}},{"type":"Feature","geometry":{"type":"Point","coordinates":[-84.38671060000001,33.7535359,0]},"properties":{"name":"Kell Hall"}},{"type":"Feature","geometry":{"type":"Point","coordinates":[-84.38661890000003,33.7539712,0]},"properties":{"name":"Arts and Humanities"}},{"type":"Feature","geometry":{"type":"Point","coordinates":[-84.3854715,33.7508331,0]},"properties":{"name":"Petit Science Center"}},{"type":"Feature","geometry":{"type":"Point","coordinates":[-84.38806499999998,33.753531,0]},"properties":{"name":"Natural Science Center"}},{"type":"Feature","geometry":{"type":"Point","coordinates":[-84.38740410000001,33.7536857,0]},"properties":{"name":"Science Annex"}},{"type":"Feature","geometry":{"type":"Point","coordinates":[-84.38456710000004,33.7538338,0]},"properties":{"name":"Dahlberg Hall"}},{"type":"Feature","geometry":{"type":"Point","coordinates":[-84.38701040000001,33.7522591,0]},"properties":{"name":"Library South"}},{"type":"Feature","geometry":{"type":"Point","coordinates":[-84.38658399999997,33.752735,0]},"properties":{"name":"GSU Library"}},{"type":"Feature","geometry":{"type":"Point","coordinates":[-84.38439800000003,33.752006,0]},"properties":{"name":"GSU Student Recreation Center"}},{"type":"Feature","geometry":{"type":"Point","coordinates":[-84.388554,33.754112,0]},"properties":{"name":"Georgia State University SBDC"}},{"type":"Feature","geometry":{"type":"Point","coordinates":[-84.38902639999998,33.7542414,0]},"properties":{"name":"One Park Place"}},{"type":"Feature","geometry":{"type":"Point","coordinates":[-84.38200699999999,33.757428000000004,0]},"properties":{"name":"GSU Student Clinic"}},{"type":"Feature","geometry":{"type":"Point","coordinates":[-84.38807300000002,33.755182,0]},"properties":{"name":"Intensive English Program/Writing Studio, Georgia State University"}},{"type":"Feature","geometry":{"type":"Point","coordinates":[-84.3848276,33.752639900000005,0]},"properties":{"name":"GSU Student Center"}},{"type":"Feature","geometry":{"type":"Point","coordinates":[-84.3870104,33.7522591,0]},"properties":{"name":"CURVE ","description":"2nd Floor Library South"}},{"type":"Feature","geometry":{"type":"Point","coordinates":[-84.3870104,33.7522591,0]},"properties":{"name":"The Exchange","description":"1st floor Library South"}},{"type":"Feature","geometry":{"type":"Point","coordinates":[-84.3848598,33.7526578,0]},"properties":{"name":"Digital Aquarium ","description":"Room 390 Student Center"}},{"type":"Feature","geometry":{"type":"Point","coordinates":[-84.38134400000001,33.757819,0]},"properties":{"name":"GSU University Commons"}},{"type":"Feature","geometry":{"type":"Point","coordinates":[-84.38371000000001,33.75422,0]},"properties":{"name":"The Lofts"}},{"type":"Feature","geometry":{"type":"Point","coordinates":[-84.38110599999999,33.758801,0]},"properties":{"name":"Piedmont North Building"}},{"type":"Feature","geometry":{"type":"Point","coordinates":[-84.38251300000002,33.754843,0]},"properties":{"name":"Patton Hall"}},{"type":"Feature","geometry":{"type":"Point","coordinates":[-84.3875506,33.7520188,0]},"properties":{"name":"G Deck"}},{"type":"Feature","geometry":{"type":"Point","coordinates":[-84.38410859999999,33.7511348,0]},"properties":{"name":"K Deck"}},{"type":"Feature","geometry":{"type":"Point","coordinates":[-84.38451250000003,33.75127160000001,0]},"properties":{"name":"N Deck"}},{"type":"Feature","geometry":{"type":"Point","coordinates":[-84.38405109999997,33.7532448,0]},"properties":{"name":"M Deck"}},{"type":"Feature","geometry":{"type":"Point","coordinates":[-84.386934,33.755361,0]},"properties":{"name":"T Deck"}},{"type":"Feature","geometry":{"type":"Point","coordinates":[-84.38935700000002,33.741483,0]},"properties":{"name":"Blue Lot- Turner Field"}},{"type":"Feature","geometry":{"type":"Point","coordinates":[-84.39153899999997,33.754061,0]},"properties":{"name":"Five Points Station"}},{"type":"Feature","geometry":{"type":"Point","coordinates":[-84.387564,33.759532,0]},"properties":{"name":"Peachtree Center Station"}},{"type":"Feature","geometry":{"type":"Point","coordinates":[-84.385404,33.749866,0]},"properties":{"name":"Georgia State Station"}},{"type":"Feature","geometry":{"type":"Point","coordinates":[-84.3849687,33.7532215,0]},"properties":{"name":"Georgia State University Student Center"}},{"type":"Feature","geometry":{"type":"Point","coordinates":[-84.381344,33.757819,0]},"properties":{"name":"University Commons"}},{"type":"Feature","geometry":{"type":"Point","coordinates":[-84.381106,33.758801,0]},"properties":{"name":"Piedmont North"}},{"type":"Feature","geometry":{"type":"Point","coordinates":[-84.3895483,33.7573855,0]},"properties":{"name":"Rialto Center of Arts"}},{"type":"Feature","geometry":{"type":"Point","coordinates":[-84.3866301,33.7546381,0]},"properties":{"name":"Art & Humanities"}},{"type":"Feature","geometry":{"type":"Point","coordinates":[-84.3859005,33.7541742,0]},"properties":{"name":"Sparks Hall"}},{"type":"Feature","geometry":{"type":"Point","coordinates":[-84.3871021,33.7537104,0]},"properties":{"name":"Langdale Hall"}},{"type":"Feature","geometry":{"type":"Point","coordinates":[-84.38805500000001,33.753206,0]},"properties":{"name":"Grab N Go"}},{"type":"Feature","geometry":{"type":"Point","coordinates":[-84.38866100000001,33.753708,0]},"properties":{"name":"SUBWAY® Restaurants near College of Education"}},{"type":"Feature","geometry":{"type":"Point","coordinates":[-84.388646,33.753865,0]},"properties":{"name":"Buenos Dias Cafe"}},{"type":"Feature","geometry":{"type":"Point","coordinates":[-84.388687,33.754074,0]},"properties":{"name":"Ebrik coffee room"}},{"type":"Feature","geometry":{"type":"Point","coordinates":[-84.388512,33.754268,0]},"properties":{"name":"Roly Poly"}},{"type":"Feature","geometry":{"type":"Point","coordinates":[-84.38824199999999,33.754348,0]},"properties":{"name":"Mr. Hibachi"}},{"type":"Feature","geometry":{"type":"Point","coordinates":[-84.38821200000001,33.754333,0]},"properties":{"name":"Sensational Subs"}},{"type":"Feature","geometry":{"type":"Point","coordinates":[-84.38800700000002,33.754192,0]},"properties":{"name":"Metro Grill"}},{"type":"Feature","geometry":{"type":"Point","coordinates":[-84.38545199999999,33.751002,0]},"properties":{"name":"Waffle House"}},{"type":"Feature","geometry":{"type":"Point","coordinates":[-84.3855168,33.7508532,0]},"properties":{"name":"Willy's Mexicana Grill"}},{"type":"Feature","geometry":{"type":"Point","coordinates":[-84.38862599999999,33.754094,0]},"properties":{"name":"Weekday Cafe"}},{"type":"Feature","geometry":{"type":"Point","coordinates":[-84.38745699999998,33.756399,0]},"properties":{"name":"Subway near 25 Park Place"}},{"type":"Feature","geometry":{"type":"Point","coordinates":[-84.38811299999998,33.756648,0]},"properties":{"name":"Rising Roll Gourmet Downtown Atlanta"}},{"type":"Feature","geometry":{"type":"Point","coordinates":[-84.38802499999997,33.756768,0]},"properties":{"name":"Downtown Gourmet"}},{"type":"Feature","geometry":{"type":"Point","coordinates":[-84.388106,33.757346,0]},"properties":{"name":"Quiznos near Aderhold"}},{"type":"Feature","geometry":{"type":"Point","coordinates":[-84.38861099999997,33.756885,0]},"properties":{"name":"Starbucks"}},{"type":"Feature","geometry":{"type":"Point","coordinates":[-84.38889899999998,33.757425,0]},"properties":{"name":"Dunkin' Donuts"}},{"type":"Feature","geometry":{"type":"Point","coordinates":[-84.38894500000004,33.756447,0]},"properties":{"name":"Mama Mia Pizza & Wings"}},{"type":"Feature","geometry":{"type":"Point","coordinates":[-84.38907599999999,33.756352,0]},"properties":{"name":"Jimmy John's"}},{"type":"Feature","geometry":{"type":"Point","coordinates":[-84.38927799999999,33.756253,0]},"properties":{"name":"Smoothie King"}},{"type":"Feature","geometry":{"type":"Point","coordinates":[-84.38883599999997,33.755916,0]},"properties":{"name":"One Caffe"}},{"type":"Feature","geometry":{"type":"Point","coordinates":[-84.388915,33.755858,0]},"properties":{"name":"Tin Drum Asiacafé"}},{"type":"Feature","geometry":{"type":"Point","coordinates":[-84.38658199999998,33.752709,0]},"properties":{"name":"Saxbys Coffee Georgia State"}},{"type":"Feature","geometry":{"type":"Point","coordinates":[-84.38207699999998,33.754934,0]},"properties":{"name":"Moe's Southwest Grill near Patton Hall"}},{"type":"Feature","geometry":{"type":"Point","coordinates":[-84.38913400000001,33.755641,0]},"properties":{"name":"Moe's Southwest Grill near Aderhold"}},{"type":"Feature","geometry":{"type":"Point","coordinates":[-84.38938610000002,33.7557005,0]},"properties":{"name":"It's Greek To Us"}},{"type":"Feature","geometry":{"type":"Point","coordinates":[-84.38933400000002,33.755399,0]},"properties":{"name":"Dua Vietnamese Noodle Soup"}},{"type":"Feature","geometry":{"type":"Point","coordinates":[-84.389297,33.755532,0]},"properties":{"name":"Reuben's Deli"}},{"type":"Feature","geometry":{"type":"Point","coordinates":[-84.38935600000002,33.75595200000001,0]},"properties":{"name":"Subway next to Aderhold"}},{"type":"Feature","geometry":{"type":"Point","coordinates":[-84.38950399999999,33.755865,0]},"properties":{"name":"Rosa's Pizza"}},{"type":"Feature","geometry":{"type":"Point","coordinates":[-84.389344,33.755865,0]},"properties":{"name":"NaanStop"}},{"type":"Feature","geometry":{"type":"Point","coordinates":[-84.38952699999999,33.755838,0]},"properties":{"name":"Ali Baba Mediterranean"}},{"type":"Feature","geometry":{"type":"Point","coordinates":[-84.38975199999999,33.755691,0]},"properties":{"name":"Ginseng Cafe"}},{"type":"Feature","geometry":{"type":"Point","coordinates":[-84.38979999999998,33.755646,0]},"properties":{"name":"Best Cajun Asian Restaurant"}},{"type":"Feature","geometry":{"type":"Point","coordinates":[-84.38966719999996,33.7557132,0]},"properties":{"name":"Mexican Tastes"}},{"type":"Feature","geometry":{"type":"Point","coordinates":[-84.389251,33.755188,0]},"properties":{"name":"Anatolia Cafe and Hookah Lounge"}},{"type":"Feature","geometry":{"type":"Point","coordinates":[-84.38900699999999,33.755405,0]},"properties":{"name":"Blossom Tree"}},{"type":"Feature","geometry":{"type":"Point","coordinates":[-84.38924299999996,33.755412,0]},"properties":{"name":"Cafe Hot Wings 11"}},{"type":"Feature","geometry":{"type":"Point","coordinates":[-84.39047,33.755192,0]},"properties":{"name":"Quiznos"}},{"type":"Feature","geometry":{"type":"Point","coordinates":[-84.39084000000003,33.754889,0]},"properties":{"name":"McDonald's"}},{"type":"Feature","geometry":{"type":"Point","coordinates":[-84.39151700000002,33.754603,0]},"properties":{"name":"Burger King"}},{"type":"Feature","geometry":{"type":"Point","coordinates":[-84.392019,33.75343,0]},"properties":{"name":"Popeyes® Louisiana Kitchen"}},{"type":"Feature","geometry":{"type":"Point","coordinates":[-84.38935800000002,33.752199,0]},"properties":{"name":"Kempani Hawaiian Grill Undrgrn"}}]}
