<?xml version='1.0' encoding='UTF-8'?>
<kml xmlns='http://www.opengis.net/kml/2.2'>
	<Document>
		<name>GSU Map</name>
		<description><![CDATA[]]></description>
		<Folder>
			<name>Classroom Buildings</name>
			<Placemark>
				<name>Georgia State University-Andrew Young School of Policy Studies</name>
				<styleUrl>#icon-503-DB4436-nodesc</styleUrl>
				<ExtendedData>
				</ExtendedData>
				<Point>
					<coordinates>-84.39016900000001,33.754289,0.0</coordinates>
				</Point>
			</Placemark>
			<Placemark>
				<name>Langdale Hall</name>
				<styleUrl>#icon-503-DB4436-nodesc</styleUrl>
				<ExtendedData>
				</ExtendedData>
				<Point>
					<coordinates>-84.38715860000002,33.7532169,0.0</coordinates>
				</Point>
			</Placemark>
			<Placemark>
				<name>Classroom South</name>
				<styleUrl>#icon-503-DB4436-nodesc</styleUrl>
				<ExtendedData>
				</ExtendedData>
				<Point>
					<coordinates>-84.38755809999998,33.7525817,0.0</coordinates>
				</Point>
			</Placemark>
			<Placemark>
				<name>Helen M. Aderhold Learning Center</name>
				<styleUrl>#icon-503-DB4436-nodesc</styleUrl>
				<ExtendedData>
				</ExtendedData>
				<Point>
					<coordinates>-84.38912640000001,33.7563531,0.0</coordinates>
				</Point>
			</Placemark>
			<Placemark>
				<name>School of Music</name>
				<styleUrl>#icon-503-DB4436-nodesc</styleUrl>
				<ExtendedData>
				</ExtendedData>
				<Point>
					<coordinates>-84.38976000000002,33.75663,0.0</coordinates>
				</Point>
			</Placemark>
			<Placemark>
				<name>Rialto Center for the Arts</name>
				<styleUrl>#icon-503-DB4436-nodesc</styleUrl>
				<ExtendedData>
				</ExtendedData>
				<Point>
					<coordinates>-84.38952599999999,33.756715,0.0</coordinates>
				</Point>
			</Placemark>
			<Placemark>
				<name>J. Mack Robinson College of Business</name>
				<styleUrl>#icon-503-DB4436-nodesc</styleUrl>
				<ExtendedData>
				</ExtendedData>
				<Point>
					<coordinates>-84.389925,33.755144,0.0</coordinates>
				</Point>
			</Placemark>
			<Placemark>
				<name>Sparks Hall</name>
				<styleUrl>#icon-503-DB4436-nodesc</styleUrl>
				<ExtendedData>
				</ExtendedData>
				<Point>
					<coordinates>-84.38590720000002,33.7534327,0.0</coordinates>
				</Point>
			</Placemark>
			<Placemark>
				<name>Kell Hall</name>
				<styleUrl>#icon-503-DB4436-nodesc</styleUrl>
				<ExtendedData>
				</ExtendedData>
				<Point>
					<coordinates>-84.38671060000001,33.7535359,0.0</coordinates>
				</Point>
			</Placemark>
			<Placemark>
				<name>Arts and Humanities</name>
				<styleUrl>#icon-503-DB4436-nodesc</styleUrl>
				<ExtendedData>
				</ExtendedData>
				<Point>
					<coordinates>-84.38661890000003,33.7539712,0.0</coordinates>
				</Point>
			</Placemark>
			<Placemark>
				<name>Petit Science Center</name>
				<styleUrl>#icon-503-DB4436-nodesc</styleUrl>
				<ExtendedData>
				</ExtendedData>
				<Point>
					<coordinates>-84.3854715,33.7508331,0.0</coordinates>
				</Point>
			</Placemark>
			<Placemark>
				<name>Natural Science Center</name>
				<styleUrl>#icon-503-DB4436-nodesc</styleUrl>
				<ExtendedData>
				</ExtendedData>
				<Point>
					<coordinates>-84.38806499999998,33.753531,0.0</coordinates>
				</Point>
			</Placemark>
			<Placemark>
				<name>Science Annex</name>
				<styleUrl>#icon-503-DB4436-nodesc</styleUrl>
				<ExtendedData>
				</ExtendedData>
				<Point>
					<coordinates>-84.38740410000001,33.7536857,0.0</coordinates>
				</Point>
			</Placemark>
			<Placemark>
				<name>Dahlberg Hall</name>
				<styleUrl>#icon-503-DB4436-nodesc</styleUrl>
				<ExtendedData>
				</ExtendedData>
				<Point>
					<coordinates>-84.38456710000004,33.7538338,0.0</coordinates>
				</Point>
			</Placemark>
			<Placemark>
				<name>Library South</name>
				<styleUrl>#icon-503-DB4436-nodesc</styleUrl>
				<ExtendedData>
				</ExtendedData>
				<Point>
					<coordinates>-84.38701040000001,33.7522591,0.0</coordinates>
				</Point>
			</Placemark>
		</Folder>
		<Folder>
			<name>Other Facilities</name>
			<Placemark>
				<name>GSU Library</name>
				<styleUrl>#icon-961-F4EB37-nodesc</styleUrl>
				<ExtendedData>
				</ExtendedData>
				<Point>
					<coordinates>-84.38658399999997,33.752735,0.0</coordinates>
				</Point>
			</Placemark>
			<Placemark>
				<name>GSU Student Recreation Center</name>
				<styleUrl>#icon-961-F4EB37-nodesc</styleUrl>
				<ExtendedData>
				</ExtendedData>
				<Point>
					<coordinates>-84.38439800000003,33.752006,0.0</coordinates>
				</Point>
			</Placemark>
			<Placemark>
				<name>Georgia State University SBDC</name>
				<styleUrl>#icon-961-F4EB37-nodesc</styleUrl>
				<ExtendedData>
				</ExtendedData>
				<Point>
					<coordinates>-84.388554,33.754112,0.0</coordinates>
				</Point>
			</Placemark>
			<Placemark>
				<name>One Park Place</name>
				<styleUrl>#icon-961-F4EB37-nodesc</styleUrl>
				<ExtendedData>
				</ExtendedData>
				<Point>
					<coordinates>-84.38902639999998,33.7542414,0.0</coordinates>
				</Point>
			</Placemark>
			<Placemark>
				<name>GSU Student Clinic</name>
				<styleUrl>#icon-961-F4EB37-nodesc</styleUrl>
				<ExtendedData>
				</ExtendedData>
				<Point>
					<coordinates>-84.38200699999999,33.757428000000004,0.0</coordinates>
				</Point>
			</Placemark>
			<Placemark>
				<name>Intensive English Program/Writing Studio, Georgia State University</name>
				<styleUrl>#icon-961-F4EB37-nodesc</styleUrl>
				<ExtendedData>
				</ExtendedData>
				<Point>
					<coordinates>-84.38807300000002,33.755182,0.0</coordinates>
				</Point>
			</Placemark>
			<Placemark>
				<name>GSU Student Center</name>
				<styleUrl>#icon-961-F4EB37-nodesc</styleUrl>
				<ExtendedData>
				</ExtendedData>
				<Point>
					<coordinates>-84.3848276,33.752639900000005,0.0</coordinates>
				</Point>
			</Placemark>
			<Placemark>
				<name>CURVE </name>
				<description><![CDATA[2nd Floor Library South]]></description>
				<styleUrl>#icon-961-F4EB37</styleUrl>
				<ExtendedData>
				</ExtendedData>
				<Point>
					<coordinates>-84.3870104,33.7522591,0.0</coordinates>
				</Point>
			</Placemark>
			<Placemark>
				<name>The Exchange</name>
				<description><![CDATA[1st floor Library South]]></description>
				<styleUrl>#icon-961-F4EB37</styleUrl>
				<ExtendedData>
				</ExtendedData>
				<Point>
					<coordinates>-84.3870104,33.7522591,0.0</coordinates>
				</Point>
			</Placemark>
			<Placemark>
				<name>Digital Aquarium </name>
				<description><![CDATA[Room 390 Student Center]]></description>
				<styleUrl>#icon-961-F4EB37</styleUrl>
				<ExtendedData>
				</ExtendedData>
				<Point>
					<coordinates>-84.3848598,33.7526578,0.0</coordinates>
				</Point>
			</Placemark>
		</Folder>
		<Folder>
			<name>GSU Housing</name>
			<Placemark>
				<name>GSU University Commons</name>
				<styleUrl>#icon-962-62AF44-nodesc</styleUrl>
				<ExtendedData>
				</ExtendedData>
				<Point>
					<coordinates>-84.38134400000001,33.757819,0.0</coordinates>
				</Point>
			</Placemark>
			<Placemark>
				<name>The Lofts</name>
				<styleUrl>#icon-962-62AF44-nodesc</styleUrl>
				<ExtendedData>
				</ExtendedData>
				<Point>
					<coordinates>-84.38371000000001,33.75422,0.0</coordinates>
				</Point>
			</Placemark>
			<Placemark>
				<name>Piedmont North Building</name>
				<styleUrl>#icon-962-62AF44-nodesc</styleUrl>
				<ExtendedData>
				</ExtendedData>
				<Point>
					<coordinates>-84.38110599999999,33.758801,0.0</coordinates>
				</Point>
			</Placemark>
			<Placemark>
				<name>Patton Hall</name>
				<styleUrl>#icon-962-62AF44-nodesc</styleUrl>
				<ExtendedData>
				</ExtendedData>
				<Point>
					<coordinates>-84.38251300000002,33.754843,0.0</coordinates>
				</Point>
			</Placemark>
		</Folder>
		<Folder>
			<name>Parking Decks</name>
			<Placemark>
				<name>G Deck</name>
				<styleUrl>#icon-1207-nodesc</styleUrl>
				<ExtendedData>
				</ExtendedData>
				<Point>
					<coordinates>-84.3875506,33.7520188,0.0</coordinates>
				</Point>
			</Placemark>
			<Placemark>
				<name>K Deck</name>
				<styleUrl>#icon-1207-nodesc</styleUrl>
				<ExtendedData>
				</ExtendedData>
				<Point>
					<coordinates>-84.38410859999999,33.7511348,0.0</coordinates>
				</Point>
			</Placemark>
			<Placemark>
				<name>N Deck</name>
				<styleUrl>#icon-1207-nodesc</styleUrl>
				<ExtendedData>
				</ExtendedData>
				<Point>
					<coordinates>-84.38451250000003,33.75127160000001,0.0</coordinates>
				</Point>
			</Placemark>
			<Placemark>
				<name>M Deck</name>
				<styleUrl>#icon-1207-nodesc</styleUrl>
				<ExtendedData>
				</ExtendedData>
				<Point>
					<coordinates>-84.38405109999997,33.7532448,0.0</coordinates>
				</Point>
			</Placemark>
			<Placemark>
				<name>T Deck</name>
				<styleUrl>#icon-1207-nodesc</styleUrl>
				<ExtendedData>
				</ExtendedData>
				<Point>
					<coordinates>-84.386934,33.755361,0.0</coordinates>
				</Point>
			</Placemark>
			<Placemark>
				<name>Blue Lot- Turner Field</name>
				<styleUrl>#icon-1207-nodesc</styleUrl>
				<ExtendedData>
				</ExtendedData>
				<Point>
					<coordinates>-84.38935700000002,33.741483,0.0</coordinates>
				</Point>
			</Placemark>
		</Folder>
		<Folder>
			<name>MARTA Stations</name>
			<Placemark>
				<name>Five Points Station</name>
				<styleUrl>#icon-1445-nodesc</styleUrl>
				<ExtendedData>
				</ExtendedData>
				<Point>
					<coordinates>-84.39153899999997,33.754061,0.0</coordinates>
				</Point>
			</Placemark>
			<Placemark>
				<name>Peachtree Center Station</name>
				<styleUrl>#icon-1445-nodesc</styleUrl>
				<ExtendedData>
				</ExtendedData>
				<Point>
					<coordinates>-84.387564,33.759532,0.0</coordinates>
				</Point>
			</Placemark>
			<Placemark>
				<name>Georgia State Station</name>
				<styleUrl>#icon-1445-nodesc</styleUrl>
				<ExtendedData>
				</ExtendedData>
				<Point>
					<coordinates>-84.385404,33.749866,0.0</coordinates>
				</Point>
			</Placemark>
		</Folder>
		<Folder>
			<name>Bus Route Stops</name>
			<Placemark>
				<name>Georgia State University Student Center</name>
				<styleUrl>#icon-1423-nodesc</styleUrl>
				<ExtendedData>
				</ExtendedData>
				<Point>
					<coordinates>-84.3849687,33.7532215,0.0</coordinates>
				</Point>
			</Placemark>
			<Placemark>
				<name>University Commons</name>
				<styleUrl>#icon-1423-nodesc</styleUrl>
				<ExtendedData>
				</ExtendedData>
				<Point>
					<coordinates>-84.381344,33.757819,0.0</coordinates>
				</Point>
			</Placemark>
			<Placemark>
				<name>Piedmont North</name>
				<styleUrl>#icon-1423-nodesc</styleUrl>
				<ExtendedData>
				</ExtendedData>
				<Point>
					<coordinates>-84.381106,33.758801,0.0</coordinates>
				</Point>
			</Placemark>
			<Placemark>
				<name>Rialto Center of Arts</name>
				<styleUrl>#icon-1423-nodesc</styleUrl>
				<ExtendedData>
				</ExtendedData>
				<Point>
					<coordinates>-84.3895483,33.7573855,0.0</coordinates>
				</Point>
			</Placemark>
			<Placemark>
				<name>Art &amp; Humanities</name>
				<styleUrl>#icon-1423-nodesc</styleUrl>
				<ExtendedData>
				</ExtendedData>
				<Point>
					<coordinates>-84.3866301,33.7546381,0.0</coordinates>
				</Point>
			</Placemark>
			<Placemark>
				<name>Sparks Hall</name>
				<styleUrl>#icon-1423-nodesc</styleUrl>
				<ExtendedData>
				</ExtendedData>
				<Point>
					<coordinates>-84.3859005,33.7541742,0.0</coordinates>
				</Point>
			</Placemark>
			<Placemark>
				<name>Langdale Hall</name>
				<styleUrl>#icon-1423-nodesc</styleUrl>
				<ExtendedData>
				</ExtendedData>
				<Point>
					<coordinates>-84.3871021,33.7537104,0.0</coordinates>
				</Point>
			</Placemark>
		</Folder>
		<Folder>
			<name>Food</name>
			<Placemark>
				<name>Grab N Go</name>
				<styleUrl>#icon-1085-nodesc</styleUrl>
				<ExtendedData>
				</ExtendedData>
				<Point>
					<coordinates>-84.38805500000001,33.753206,0.0</coordinates>
				</Point>
			</Placemark>
			<Placemark>
				<name>SUBWAY® Restaurants near College of Education</name>
				<styleUrl>#icon-1085-nodesc</styleUrl>
				<ExtendedData>
				</ExtendedData>
				<Point>
					<coordinates>-84.38866100000001,33.753708,0.0</coordinates>
				</Point>
			</Placemark>
			<Placemark>
				<name>Buenos Dias Cafe</name>
				<styleUrl>#icon-1085-nodesc</styleUrl>
				<ExtendedData>
				</ExtendedData>
				<Point>
					<coordinates>-84.388646,33.753865,0.0</coordinates>
				</Point>
			</Placemark>
			<Placemark>
				<name>Ebrik coffee room</name>
				<styleUrl>#icon-991-nodesc</styleUrl>
				<ExtendedData>
				</ExtendedData>
				<Point>
					<coordinates>-84.388687,33.754074,0.0</coordinates>
				</Point>
			</Placemark>
			<Placemark>
				<name>Roly Poly</name>
				<styleUrl>#icon-1085-nodesc</styleUrl>
				<ExtendedData>
				</ExtendedData>
				<Point>
					<coordinates>-84.388512,33.754268,0.0</coordinates>
				</Point>
			</Placemark>
			<Placemark>
				<name>Mr. Hibachi</name>
				<styleUrl>#icon-1085-nodesc</styleUrl>
				<ExtendedData>
				</ExtendedData>
				<Point>
					<coordinates>-84.38824199999999,33.754348,0.0</coordinates>
				</Point>
			</Placemark>
			<Placemark>
				<name>Sensational Subs</name>
				<styleUrl>#icon-1085-nodesc</styleUrl>
				<ExtendedData>
				</ExtendedData>
				<Point>
					<coordinates>-84.38821200000001,33.754333,0.0</coordinates>
				</Point>
			</Placemark>
			<Placemark>
				<name>Metro Grill</name>
				<styleUrl>#icon-1085-nodesc</styleUrl>
				<ExtendedData>
				</ExtendedData>
				<Point>
					<coordinates>-84.38800700000002,33.754192,0.0</coordinates>
				</Point>
			</Placemark>
			<Placemark>
				<name>Waffle House</name>
				<styleUrl>#icon-1085-nodesc</styleUrl>
				<ExtendedData>
				</ExtendedData>
				<Point>
					<coordinates>-84.38545199999999,33.751002,0.0</coordinates>
				</Point>
			</Placemark>
			<Placemark>
				<name>Willy's Mexicana Grill</name>
				<styleUrl>#icon-1085-nodesc</styleUrl>
				<ExtendedData>
				</ExtendedData>
				<Point>
					<coordinates>-84.3855168,33.7508532,0.0</coordinates>
				</Point>
			</Placemark>
			<Placemark>
				<name>Weekday Cafe</name>
				<styleUrl>#icon-1085-nodesc</styleUrl>
				<ExtendedData>
				</ExtendedData>
				<Point>
					<coordinates>-84.38862599999999,33.754094,0.0</coordinates>
				</Point>
			</Placemark>
			<Placemark>
				<name>Subway near 25 Park Place</name>
				<styleUrl>#icon-1085-nodesc</styleUrl>
				<ExtendedData>
				</ExtendedData>
				<Point>
					<coordinates>-84.38745699999998,33.756399,0.0</coordinates>
				</Point>
			</Placemark>
			<Placemark>
				<name>Rising Roll Gourmet Downtown Atlanta</name>
				<styleUrl>#icon-1085-nodesc</styleUrl>
				<ExtendedData>
				</ExtendedData>
				<Point>
					<coordinates>-84.38811299999998,33.756648,0.0</coordinates>
				</Point>
			</Placemark>
			<Placemark>
				<name>Downtown Gourmet</name>
				<styleUrl>#icon-1085-nodesc</styleUrl>
				<ExtendedData>
				</ExtendedData>
				<Point>
					<coordinates>-84.38802499999997,33.756768,0.0</coordinates>
				</Point>
			</Placemark>
			<Placemark>
				<name>Quiznos near Aderhold</name>
				<styleUrl>#icon-1085-nodesc</styleUrl>
				<ExtendedData>
				</ExtendedData>
				<Point>
					<coordinates>-84.388106,33.757346,0.0</coordinates>
				</Point>
			</Placemark>
			<Placemark>
				<name>Starbucks</name>
				<styleUrl>#icon-991-nodesc</styleUrl>
				<ExtendedData>
				</ExtendedData>
				<Point>
					<coordinates>-84.38861099999997,33.756885,0.0</coordinates>
				</Point>
			</Placemark>
			<Placemark>
				<name>Dunkin' Donuts</name>
				<styleUrl>#icon-991-nodesc</styleUrl>
				<ExtendedData>
				</ExtendedData>
				<Point>
					<coordinates>-84.38889899999998,33.757425,0.0</coordinates>
				</Point>
			</Placemark>
			<Placemark>
				<name>Mama Mia Pizza &amp; Wings</name>
				<styleUrl>#icon-1089-nodesc</styleUrl>
				<ExtendedData>
				</ExtendedData>
				<Point>
					<coordinates>-84.38894500000004,33.756447,0.0</coordinates>
				</Point>
			</Placemark>
			<Placemark>
				<name>Jimmy John's</name>
				<styleUrl>#icon-1085-nodesc</styleUrl>
				<ExtendedData>
				</ExtendedData>
				<Point>
					<coordinates>-84.38907599999999,33.756352,0.0</coordinates>
				</Point>
			</Placemark>
			<Placemark>
				<name>Smoothie King</name>
				<styleUrl>#icon-991-nodesc</styleUrl>
				<ExtendedData>
				</ExtendedData>
				<Point>
					<coordinates>-84.38927799999999,33.756253,0.0</coordinates>
				</Point>
			</Placemark>
			<Placemark>
				<name>One Caffe</name>
				<styleUrl>#icon-991-nodesc</styleUrl>
				<ExtendedData>
				</ExtendedData>
				<Point>
					<coordinates>-84.38883599999997,33.755916,0.0</coordinates>
				</Point>
			</Placemark>
			<Placemark>
				<name>Tin Drum Asiacafé</name>
				<styleUrl>#icon-1075-nodesc</styleUrl>
				<ExtendedData>
				</ExtendedData>
				<Point>
					<coordinates>-84.388915,33.755858,0.0</coordinates>
				</Point>
			</Placemark>
			<Placemark>
				<name>Saxbys Coffee Georgia State</name>
				<styleUrl>#icon-991-nodesc</styleUrl>
				<ExtendedData>
				</ExtendedData>
				<Point>
					<coordinates>-84.38658199999998,33.752709,0.0</coordinates>
				</Point>
			</Placemark>
			<Placemark>
				<name>Moe's Southwest Grill near Patton Hall</name>
				<styleUrl>#icon-1085-nodesc</styleUrl>
				<ExtendedData>
				</ExtendedData>
				<Point>
					<coordinates>-84.38207699999998,33.754934,0.0</coordinates>
				</Point>
			</Placemark>
			<Placemark>
				<name>Moe's Southwest Grill near Aderhold</name>
				<styleUrl>#icon-1085-nodesc</styleUrl>
				<ExtendedData>
				</ExtendedData>
				<Point>
					<coordinates>-84.38913400000001,33.755641,0.0</coordinates>
				</Point>
			</Placemark>
			<Placemark>
				<name>It's Greek To Us</name>
				<styleUrl>#icon-1085-nodesc</styleUrl>
				<ExtendedData>
				</ExtendedData>
				<Point>
					<coordinates>-84.38938610000002,33.7557005,0.0</coordinates>
				</Point>
			</Placemark>
			<Placemark>
				<name>Dua Vietnamese Noodle Soup</name>
				<styleUrl>#icon-1075-nodesc</styleUrl>
				<ExtendedData>
				</ExtendedData>
				<Point>
					<coordinates>-84.38933400000002,33.755399,0.0</coordinates>
				</Point>
			</Placemark>
			<Placemark>
				<name>Reuben's Deli</name>
				<styleUrl>#icon-1085-nodesc</styleUrl>
				<ExtendedData>
				</ExtendedData>
				<Point>
					<coordinates>-84.389297,33.755532,0.0</coordinates>
				</Point>
			</Placemark>
			<Placemark>
				<name>Subway next to Aderhold</name>
				<styleUrl>#icon-1085-nodesc</styleUrl>
				<ExtendedData>
				</ExtendedData>
				<Point>
					<coordinates>-84.38935600000002,33.75595200000001,0.0</coordinates>
				</Point>
			</Placemark>
			<Placemark>
				<name>Rosa's Pizza</name>
				<styleUrl>#icon-1089-nodesc</styleUrl>
				<ExtendedData>
				</ExtendedData>
				<Point>
					<coordinates>-84.38950399999999,33.755865,0.0</coordinates>
				</Point>
			</Placemark>
			<Placemark>
				<name>NaanStop</name>
				<styleUrl>#icon-1085-nodesc</styleUrl>
				<ExtendedData>
				</ExtendedData>
				<Point>
					<coordinates>-84.389344,33.755865,0.0</coordinates>
				</Point>
			</Placemark>
			<Placemark>
				<name>Ali Baba Mediterranean</name>
				<styleUrl>#icon-1085-nodesc</styleUrl>
				<ExtendedData>
				</ExtendedData>
				<Point>
					<coordinates>-84.38952699999999,33.755838,0.0</coordinates>
				</Point>
			</Placemark>
			<Placemark>
				<name>Ginseng Cafe</name>
				<styleUrl>#icon-1075-nodesc</styleUrl>
				<ExtendedData>
				</ExtendedData>
				<Point>
					<coordinates>-84.38975199999999,33.755691,0.0</coordinates>
				</Point>
			</Placemark>
			<Placemark>
				<name>Best Cajun Asian Restaurant</name>
				<styleUrl>#icon-1075-nodesc</styleUrl>
				<ExtendedData>
				</ExtendedData>
				<Point>
					<coordinates>-84.38979999999998,33.755646,0.0</coordinates>
				</Point>
			</Placemark>
			<Placemark>
				<name>Mexican Tastes</name>
				<styleUrl>#icon-1085-nodesc</styleUrl>
				<ExtendedData>
				</ExtendedData>
				<Point>
					<coordinates>-84.38966719999996,33.7557132,0.0</coordinates>
				</Point>
			</Placemark>
			<Placemark>
				<name>Anatolia Cafe and Hookah Lounge</name>
				<styleUrl>#icon-1085-nodesc</styleUrl>
				<ExtendedData>
				</ExtendedData>
				<Point>
					<coordinates>-84.389251,33.755188,0.0</coordinates>
				</Point>
			</Placemark>
			<Placemark>
				<name>Blossom Tree</name>
				<styleUrl>#icon-1075-nodesc</styleUrl>
				<ExtendedData>
				</ExtendedData>
				<Point>
					<coordinates>-84.38900699999999,33.755405,0.0</coordinates>
				</Point>
			</Placemark>
			<Placemark>
				<name>Cafe Hot Wings 11</name>
				<styleUrl>#icon-1085-nodesc</styleUrl>
				<ExtendedData>
				</ExtendedData>
				<Point>
					<coordinates>-84.38924299999996,33.755412,0.0</coordinates>
				</Point>
			</Placemark>
			<Placemark>
				<name>Quiznos</name>
				<styleUrl>#icon-1085-nodesc</styleUrl>
				<ExtendedData>
				</ExtendedData>
				<Point>
					<coordinates>-84.39047,33.755192,0.0</coordinates>
				</Point>
			</Placemark>
			<Placemark>
				<name>McDonald's</name>
				<styleUrl>#icon-1077-nodesc</styleUrl>
				<ExtendedData>
				</ExtendedData>
				<Point>
					<coordinates>-84.39084000000003,33.754889,0.0</coordinates>
				</Point>
			</Placemark>
			<Placemark>
				<name>Burger King</name>
				<styleUrl>#icon-1077-nodesc</styleUrl>
				<ExtendedData>
				</ExtendedData>
				<Point>
					<coordinates>-84.39151700000002,33.754603,0.0</coordinates>
				</Point>
			</Placemark>
			<Placemark>
				<name>Popeyes® Louisiana Kitchen</name>
				<styleUrl>#icon-1085-nodesc</styleUrl>
				<ExtendedData>
				</ExtendedData>
				<Point>
					<coordinates>-84.392019,33.75343,0.0</coordinates>
				</Point>
			</Placemark>
			<Placemark>
				<name>Kempani Hawaiian Grill Undrgrn</name>
				<styleUrl>#icon-1075-nodesc</styleUrl>
				<ExtendedData>
				</ExtendedData>
				<Point>
					<coordinates>-84.38935800000002,33.752199,0.0</coordinates>
				</Point>
			</Placemark>
		</Folder>
		<Style id='icon-1075-nodesc-normal'>
			<IconStyle>
				<scale>1.1</scale>
				<Icon>
					<href>http://www.gstatic.com/mapspro/images/stock/1075-biz-restaurant-asian.png</href>
				</Icon>
			</IconStyle>
			<LabelStyle>
				<scale>0.0</scale>
			</LabelStyle>
			<BalloonStyle>
				<text><![CDATA[<h3>$[name]</h3>]]></text>
			</BalloonStyle>
		</Style>
		<Style id='icon-1075-nodesc-highlight'>
			<IconStyle>
				<scale>1.1</scale>
				<Icon>
					<href>http://www.gstatic.com/mapspro/images/stock/1075-biz-restaurant-asian.png</href>
				</Icon>
			</IconStyle>
			<LabelStyle>
				<scale>1.1</scale>
			</LabelStyle>
			<BalloonStyle>
				<text><![CDATA[<h3>$[name]</h3>]]></text>
			</BalloonStyle>
		</Style>
		<StyleMap id='icon-1075-nodesc'>
			<Pair>
				<key>normal</key>
				<styleUrl>#icon-1075-nodesc-normal</styleUrl>
			</Pair>
			<Pair>
				<key>highlight</key>
				<styleUrl>#icon-1075-nodesc-highlight</styleUrl>
			</Pair>
		</StyleMap>
		<Style id='icon-1077-nodesc-normal'>
			<IconStyle>
				<scale>1.1</scale>
				<Icon>
					<href>http://www.gstatic.com/mapspro/images/stock/1077-biz-restaurant-burger.png</href>
				</Icon>
			</IconStyle>
			<LabelStyle>
				<scale>0.0</scale>
			</LabelStyle>
			<BalloonStyle>
				<text><![CDATA[<h3>$[name]</h3>]]></text>
			</BalloonStyle>
		</Style>
		<Style id='icon-1077-nodesc-highlight'>
			<IconStyle>
				<scale>1.1</scale>
				<Icon>
					<href>http://www.gstatic.com/mapspro/images/stock/1077-biz-restaurant-burger.png</href>
				</Icon>
			</IconStyle>
			<LabelStyle>
				<scale>1.1</scale>
			</LabelStyle>
			<BalloonStyle>
				<text><![CDATA[<h3>$[name]</h3>]]></text>
			</BalloonStyle>
		</Style>
		<StyleMap id='icon-1077-nodesc'>
			<Pair>
				<key>normal</key>
				<styleUrl>#icon-1077-nodesc-normal</styleUrl>
			</Pair>
			<Pair>
				<key>highlight</key>
				<styleUrl>#icon-1077-nodesc-highlight</styleUrl>
			</Pair>
		</StyleMap>
		<Style id='icon-1085-nodesc-normal'>
			<IconStyle>
				<scale>1.1</scale>
				<Icon>
					<href>http://www.gstatic.com/mapspro/images/stock/1085-biz-restaurant-generic.png</href>
				</Icon>
			</IconStyle>
			<LabelStyle>
				<scale>0.0</scale>
			</LabelStyle>
			<BalloonStyle>
				<text><![CDATA[<h3>$[name]</h3>]]></text>
			</BalloonStyle>
		</Style>
		<Style id='icon-1085-nodesc-highlight'>
			<IconStyle>
				<scale>1.1</scale>
				<Icon>
					<href>http://www.gstatic.com/mapspro/images/stock/1085-biz-restaurant-generic.png</href>
				</Icon>
			</IconStyle>
			<LabelStyle>
				<scale>1.1</scale>
			</LabelStyle>
			<BalloonStyle>
				<text><![CDATA[<h3>$[name]</h3>]]></text>
			</BalloonStyle>
		</Style>
		<StyleMap id='icon-1085-nodesc'>
			<Pair>
				<key>normal</key>
				<styleUrl>#icon-1085-nodesc-normal</styleUrl>
			</Pair>
			<Pair>
				<key>highlight</key>
				<styleUrl>#icon-1085-nodesc-highlight</styleUrl>
			</Pair>
		</StyleMap>
		<Style id='icon-1089-nodesc-normal'>
			<IconStyle>
				<scale>1.1</scale>
				<Icon>
					<href>http://www.gstatic.com/mapspro/images/stock/1089-biz-restaurant-pizza.png</href>
				</Icon>
			</IconStyle>
			<LabelStyle>
				<scale>0.0</scale>
			</LabelStyle>
			<BalloonStyle>
				<text><![CDATA[<h3>$[name]</h3>]]></text>
			</BalloonStyle>
		</Style>
		<Style id='icon-1089-nodesc-highlight'>
			<IconStyle>
				<scale>1.1</scale>
				<Icon>
					<href>http://www.gstatic.com/mapspro/images/stock/1089-biz-restaurant-pizza.png</href>
				</Icon>
			</IconStyle>
			<LabelStyle>
				<scale>1.1</scale>
			</LabelStyle>
			<BalloonStyle>
				<text><![CDATA[<h3>$[name]</h3>]]></text>
			</BalloonStyle>
		</Style>
		<StyleMap id='icon-1089-nodesc'>
			<Pair>
				<key>normal</key>
				<styleUrl>#icon-1089-nodesc-normal</styleUrl>
			</Pair>
			<Pair>
				<key>highlight</key>
				<styleUrl>#icon-1089-nodesc-highlight</styleUrl>
			</Pair>
		</StyleMap>
		<Style id='icon-1207-nodesc-normal'>
			<IconStyle>
				<scale>1.1</scale>
				<Icon>
					<href>http://www.gstatic.com/mapspro/images/stock/1207-fac-parking.png</href>
				</Icon>
			</IconStyle>
			<LabelStyle>
				<scale>0.0</scale>
			</LabelStyle>
			<BalloonStyle>
				<text><![CDATA[<h3>$[name]</h3>]]></text>
			</BalloonStyle>
		</Style>
		<Style id='icon-1207-nodesc-highlight'>
			<IconStyle>
				<scale>1.1</scale>
				<Icon>
					<href>http://www.gstatic.com/mapspro/images/stock/1207-fac-parking.png</href>
				</Icon>
			</IconStyle>
			<LabelStyle>
				<scale>1.1</scale>
			</LabelStyle>
			<BalloonStyle>
				<text><![CDATA[<h3>$[name]</h3>]]></text>
			</BalloonStyle>
		</Style>
		<StyleMap id='icon-1207-nodesc'>
			<Pair>
				<key>normal</key>
				<styleUrl>#icon-1207-nodesc-normal</styleUrl>
			</Pair>
			<Pair>
				<key>highlight</key>
				<styleUrl>#icon-1207-nodesc-highlight</styleUrl>
			</Pair>
		</StyleMap>
		<Style id='icon-1423-nodesc-normal'>
			<IconStyle>
				<scale>1.1</scale>
				<Icon>
					<href>http://www.gstatic.com/mapspro/images/stock/1423-trans-bus.png</href>
				</Icon>
			</IconStyle>
			<LabelStyle>
				<scale>0.0</scale>
			</LabelStyle>
			<BalloonStyle>
				<text><![CDATA[<h3>$[name]</h3>]]></text>
			</BalloonStyle>
		</Style>
		<Style id='icon-1423-nodesc-highlight'>
			<IconStyle>
				<scale>1.1</scale>
				<Icon>
					<href>http://www.gstatic.com/mapspro/images/stock/1423-trans-bus.png</href>
				</Icon>
			</IconStyle>
			<LabelStyle>
				<scale>1.1</scale>
			</LabelStyle>
			<BalloonStyle>
				<text><![CDATA[<h3>$[name]</h3>]]></text>
			</BalloonStyle>
		</Style>
		<StyleMap id='icon-1423-nodesc'>
			<Pair>
				<key>normal</key>
				<styleUrl>#icon-1423-nodesc-normal</styleUrl>
			</Pair>
			<Pair>
				<key>highlight</key>
				<styleUrl>#icon-1423-nodesc-highlight</styleUrl>
			</Pair>
		</StyleMap>
		<Style id='icon-1445-nodesc-normal'>
			<IconStyle>
				<scale>1.1</scale>
				<Icon>
					<href>http://www.gstatic.com/mapspro/images/stock/1445-trans-metro.png</href>
				</Icon>
			</IconStyle>
			<LabelStyle>
				<scale>0.0</scale>
			</LabelStyle>
			<BalloonStyle>
				<text><![CDATA[<h3>$[name]</h3>]]></text>
			</BalloonStyle>
		</Style>
		<Style id='icon-1445-nodesc-highlight'>
			<IconStyle>
				<scale>1.1</scale>
				<Icon>
					<href>http://www.gstatic.com/mapspro/images/stock/1445-trans-metro.png</href>
				</Icon>
			</IconStyle>
			<LabelStyle>
				<scale>1.1</scale>
			</LabelStyle>
			<BalloonStyle>
				<text><![CDATA[<h3>$[name]</h3>]]></text>
			</BalloonStyle>
		</Style>
		<StyleMap id='icon-1445-nodesc'>
			<Pair>
				<key>normal</key>
				<styleUrl>#icon-1445-nodesc-normal</styleUrl>
			</Pair>
			<Pair>
				<key>highlight</key>
				<styleUrl>#icon-1445-nodesc-highlight</styleUrl>
			</Pair>
		</StyleMap>
		<Style id='icon-503-DB4436-nodesc-normal'>
			<IconStyle>
				<color>ff3644DB</color>
				<scale>1.1</scale>
				<Icon>
					<href>http://www.gstatic.com/mapspro/images/stock/503-wht-blank_maps.png</href>
				</Icon>
				<hotSpot x='16' y='31' xunits='pixels' yunits='insetPixels'>
				</hotSpot>
			</IconStyle>
			<LabelStyle>
				<scale>0.0</scale>
			</LabelStyle>
			<BalloonStyle>
				<text><![CDATA[<h3>$[name]</h3>]]></text>
			</BalloonStyle>
		</Style>
		<Style id='icon-503-DB4436-nodesc-highlight'>
			<IconStyle>
				<color>ff3644DB</color>
				<scale>1.1</scale>
				<Icon>
					<href>http://www.gstatic.com/mapspro/images/stock/503-wht-blank_maps.png</href>
				</Icon>
				<hotSpot x='16' y='31' xunits='pixels' yunits='insetPixels'>
				</hotSpot>
			</IconStyle>
			<LabelStyle>
				<scale>1.1</scale>
			</LabelStyle>
			<BalloonStyle>
				<text><![CDATA[<h3>$[name]</h3>]]></text>
			</BalloonStyle>
		</Style>
		<StyleMap id='icon-503-DB4436-nodesc'>
			<Pair>
				<key>normal</key>
				<styleUrl>#icon-503-DB4436-nodesc-normal</styleUrl>
			</Pair>
			<Pair>
				<key>highlight</key>
				<styleUrl>#icon-503-DB4436-nodesc-highlight</styleUrl>
			</Pair>
		</StyleMap>
		<Style id='icon-961-F4EB37-normal'>
			<IconStyle>
				<color>ff37EBF4</color>
				<scale>1.1</scale>
				<Icon>
					<href>http://www.gstatic.com/mapspro/images/stock/961-wht-square-blank.png</href>
				</Icon>
			</IconStyle>
			<LabelStyle>
				<scale>0.0</scale>
			</LabelStyle>
		</Style>
		<Style id='icon-961-F4EB37-highlight'>
			<IconStyle>
				<color>ff37EBF4</color>
				<scale>1.1</scale>
				<Icon>
					<href>http://www.gstatic.com/mapspro/images/stock/961-wht-square-blank.png</href>
				</Icon>
			</IconStyle>
			<LabelStyle>
				<scale>1.1</scale>
			</LabelStyle>
		</Style>
		<StyleMap id='icon-961-F4EB37'>
			<Pair>
				<key>normal</key>
				<styleUrl>#icon-961-F4EB37-normal</styleUrl>
			</Pair>
			<Pair>
				<key>highlight</key>
				<styleUrl>#icon-961-F4EB37-highlight</styleUrl>
			</Pair>
		</StyleMap>
		<Style id='icon-961-F4EB37-nodesc-normal'>
			<IconStyle>
				<color>ff37EBF4</color>
				<scale>1.1</scale>
				<Icon>
					<href>http://www.gstatic.com/mapspro/images/stock/961-wht-square-blank.png</href>
				</Icon>
			</IconStyle>
			<LabelStyle>
				<scale>0.0</scale>
			</LabelStyle>
			<BalloonStyle>
				<text><![CDATA[<h3>$[name]</h3>]]></text>
			</BalloonStyle>
		</Style>
		<Style id='icon-961-F4EB37-nodesc-highlight'>
			<IconStyle>
				<color>ff37EBF4</color>
				<scale>1.1</scale>
				<Icon>
					<href>http://www.gstatic.com/mapspro/images/stock/961-wht-square-blank.png</href>
				</Icon>
			</IconStyle>
			<LabelStyle>
				<scale>1.1</scale>
			</LabelStyle>
			<BalloonStyle>
				<text><![CDATA[<h3>$[name]</h3>]]></text>
			</BalloonStyle>
		</Style>
		<StyleMap id='icon-961-F4EB37-nodesc'>
			<Pair>
				<key>normal</key>
				<styleUrl>#icon-961-F4EB37-nodesc-normal</styleUrl>
			</Pair>
			<Pair>
				<key>highlight</key>
				<styleUrl>#icon-961-F4EB37-nodesc-highlight</styleUrl>
			</Pair>
		</StyleMap>
		<Style id='icon-962-62AF44-nodesc-normal'>
			<IconStyle>
				<color>ff44AF62</color>
				<scale>1.1</scale>
				<Icon>
					<href>http://www.gstatic.com/mapspro/images/stock/962-wht-diamond-blank.png</href>
				</Icon>
			</IconStyle>
			<LabelStyle>
				<scale>0.0</scale>
			</LabelStyle>
			<BalloonStyle>
				<text><![CDATA[<h3>$[name]</h3>]]></text>
			</BalloonStyle>
		</Style>
		<Style id='icon-962-62AF44-nodesc-highlight'>
			<IconStyle>
				<color>ff44AF62</color>
				<scale>1.1</scale>
				<Icon>
					<href>http://www.gstatic.com/mapspro/images/stock/962-wht-diamond-blank.png</href>
				</Icon>
			</IconStyle>
			<LabelStyle>
				<scale>1.1</scale>
			</LabelStyle>
			<BalloonStyle>
				<text><![CDATA[<h3>$[name]</h3>]]></text>
			</BalloonStyle>
		</Style>
		<StyleMap id='icon-962-62AF44-nodesc'>
			<Pair>
				<key>normal</key>
				<styleUrl>#icon-962-62AF44-nodesc-normal</styleUrl>
			</Pair>
			<Pair>
				<key>highlight</key>
				<styleUrl>#icon-962-62AF44-nodesc-highlight</styleUrl>
			</Pair>
		</StyleMap>
		<Style id='icon-991-nodesc-normal'>
			<IconStyle>
				<scale>1.1</scale>
				<Icon>
					<href>http://www.gstatic.com/mapspro/images/stock/991-biz-cafe.png</href>
				</Icon>
			</IconStyle>
			<LabelStyle>
				<scale>0.0</scale>
			</LabelStyle>
			<BalloonStyle>
				<text><![CDATA[<h3>$[name]</h3>]]></text>
			</BalloonStyle>
		</Style>
		<Style id='icon-991-nodesc-highlight'>
			<IconStyle>
				<scale>1.1</scale>
				<Icon>
					<href>http://www.gstatic.com/mapspro/images/stock/991-biz-cafe.png</href>
				</Icon>
			</IconStyle>
			<LabelStyle>
				<scale>1.1</scale>
			</LabelStyle>
			<BalloonStyle>
				<text><![CDATA[<h3>$[name]</h3>]]></text>
			</BalloonStyle>
		</Style>
		<StyleMap id='icon-991-nodesc'>
			<Pair>
				<key>normal</key>
				<styleUrl>#icon-991-nodesc-normal</styleUrl>
			</Pair>
			<Pair>
				<key>highlight</key>
				<styleUrl>#icon-991-nodesc-highlight</styleUrl>
			</Pair>
		</StyleMap>
	</Document>
</kml>